{
  "type": "FeatureCollection",
  "features": [
    {
      "type": "Feature",
      "geometry": { "type": "Point", "coordinates": [9.16110217838948, 48.77531579490758] },
      "properties": { "name": "Moulu Café", "rating": 5, "tags": ["ruhig", "außenplätze", "lecker", "to-go"], "notes": "Konstant guter Kaffee. An sonnigen Tagen sehr voll." }
    },
    {
      "type": "Feature",
      "geometry": { "type": "Point", "coordinates": [9.161955151753826, 48.777231058388054] },
      "properties": { "name": "Mókuska", "rating": 4, "tags": ["lecker", "außenplätze", "to-go"], "notes": "Bisher immer nur Kaffee mitgenommen." }
    },
    {
      "type": "Feature",
      "geometry": { "type": "Point", "coordinates": [9.159720197780093, 48.77677135202171] },
      "properties": { "name": "siebenundsechzig", "rating": 3.5, "tags": ["lecker", "außenplätze", "ruhig"], "notes": "Bisschen unbequem draußen zu sitzen. Guter Kaffee." }
    },
    {
      "type": "Feature",
      "geometry": { "type": "Point", "coordinates": [9.16900705396747, 48.76591864844074] },
      "properties": { "name": "Bruno Café & Bar", "rating": 3.9, "tags": ["lecker", "außenplätze", "ruhig"], "notes": "Sehr guter Kaffee, aber Preis-Leistung nicht so gut." }
    },
    {
      "type": "Feature",
      "geometry": { "type": "Point", "coordinates": [9.160078007795027, 48.77665277298261] },
      "properties": { "name": "BRT Café", "rating": 4, "tags": ["lecker", "außenplätze", "ruhig"], "notes": "Großer Cappucino ist wirklich groß. Getränke selber holen." }
    },
    {
      "type": "Feature",
      "geometry": { "type": "Point", "coordinates": [9.172653163044819, 48.77496533716784] },
      "properties": { "name": "Walther Café", "rating": 5, "tags": ["außenplätze", "belebte-lage", "gebäck", "teuer"], "notes": "Lage mit viel Laufpublikum – gut zum Draußensitzen." }
    },
    {
      "type": "Feature",
      "geometry": { "type": "Point", "coordinates": [9.156052136478207, 48.77838204118659] },
      "properties": { "name": "Wyld", "rating": 5, "tags": ["lecker", "ruhig", "außenplätze"], "notes": "Auswahl besonderer Getränke im Vergleich zu Standardcafés." }
    },
    {
      "type": "Feature",
      "geometry": { "type": "Point", "coordinates": [9.168401141078855, 48.7651617428132] },
      "properties": { "name": "Café Galao", "rating": 5, "tags": ["lecker", "belebte-lage", "außenplätze", "essen"], "notes": "Viele Außenplätze; warme Speisen verfügbar." }
    },
    {
      "type": "Feature",
      "geometry": { "type": "Point", "coordinates": [5.120337989483516, 52.09100320567425] },
      "properties": { "name": "Graaf Floris Café", "rating": 5, "tags": ["lecker", "belebte-lage", "außenplätze", "essen"], "notes": "Angenehm; mit fünf Personen schwer Sitzplätze zu finden." }
    },
    {
      "type": "Feature",
      "geometry": { "type": "Point", "coordinates": [7.777711151234764, 48.247060136029354] },
      "properties": { "name": "Gelati Don Peppino", "rating": 3, "tags": ["außenplätze", "essen"], "notes": "Eigentlich eine Eisdiele; Viel Kaffee für wenig Geld." }
    },
    {
      "type": "Feature",
      "geometry": { "type": "Point", "coordinates": [7.802294585312287, 48.26332624517883] },
      "properties": { "name": "Cozy Café", "rating": 3, "tags": ["lecker", "brunch"], "notes": "Eignet sich gut für Frühstücken." }
    },
    {
      "type": "Feature",
      "geometry": { "type": "Point", "coordinates": [7.804000974815129, 48.26361597670407] },
      "properties": { "name": "Jackys Glashaus", "rating": 4, "tags": ["lecker", "brunch", "außenplätze"], "notes": "Viel Auswahl an Frühstück." }
    }
  ]
}
